[
    {
      "name":"CrossFit Baguio",
      "address":"Montinola Subdivision, Kisad Rd, Baguio",
      "number":"0977 642 2328",
      "openinghrs":"",
      "lat":16.4038 ,
      "lng":120.5941
    },
    {
      "name":"Fitness Edge Health and Fitness Club",
      "address":"Sunset Deck Terrace, SM Baguio, Luneta Hill Dr, Baguio, 2600 Benguet",
      "number":"0974 446 8892",
      "openinghrs":"",
      "lat":16.4090,
      "lng":120.5993
    },
    {
      "name":"Altitude Gym",
      "address":"2nd Floor, Mt. Crest Hotel, Legarda Rd, Baguio, Benguet",
      "lat":45.4469,
      "lng":75.7369
    },
    {
      "name":"Lakay Central Gym",
      "address":"Gym in Baguio, Philippines",
      "number":"0907 693 5608",
      "lat":16.4142,
      "lng":120.5941
    },
    {
      "name":"Stallion Fitness Gym",
      "address":"138 Session Road, Baguio City, Benguet",
      "number":"0974 304 4970",
      "lat":16.4126,
      "lng":120.5974
    },
    {
      "name":"NCH Gym",
      "address":"New Lucban Rd, Baguio, Benguet",
      "openinghrs":"",
      "lat":16.4225,
      "lng":120.5957
    },
    {
      "name":"Endless Gym & Fitness Center",
      "address":"3rd Floor Porta Vaga Commercial Center, Session Road, Baguio City, Benguet",
      "number":"0974 446 9516",
      "lat":16.4120,
      "lng":120.5986
    },
    {
      "name":"Benguet Fitness Center",
      "address":"95A, PRH Building, Upper Bonifacio St, Barangay ABCR, Baguio, 2600 Benguet",
      "number":"0929 303 6999",
      "openinghrs":"",
      "lat":16.4190,
      "lng":120.5967
    },
    {
      "name":"Tauruz Fitness Gym",
      "address":"Rm. 501 La Azotea bldg. Session road, Baguio, 2600 Benguet",
      "number":"0915 995 2059",
      "openinghrs":"",
      "lat":16.4118,
      "lng":120.5981
    },
    {
      "name":"St. Vincent Gym",
      "address":"Brower Rd, Baguio, Benguet",
      "lat":16.4150,
      "lng":120.5879
    },
    {
      "name":"Muscleaneous Fitness Gym (branch)",
      "address":"Upper Bonifacio St, Baguio, Benguet",
      "lat":16.4182,
      "lng":120.5964
    },
    {
      "name":"Mix Fitness Center",
      "address":"Mabini St, Baguio, Benguet",
      "number":"0977 174 4898",
      "openinghrs":"",
      "lat":16.4140,
      "lng":120.5967
    },
    {
      "name":"Criseder Fitness Gym",
      "address":"Ben Palispis Hwy, Baguio, Benguet",
      "number":"0910 569 9596",
      "openinghrs":"",
      "lat":16.3893,
      "lng":120.5748
    },
    {
      "name":"Texas Instruments Baguio Gym",
      "address":"Baguio, Benguet",
      "openinghrs":"",
      "lat":16.4182,
      "lng":120.5964
    },
    {
      "name":"Lakay La Trinidad Gym",
      "address":"Pine Valley Plaza, Baguio - La Trinidad - Bontoc Rd, La Trinidad, 2601 Benguet",
      "number":"0929 496 5527",
      "lat":16.4415,
      "lng":120.5930
    }
  ]
